ID,Name,Latitude,Longitude,Georef. S/N,Still Exists,Lifespan,Year Built,Year Destroyed,HasData,Population Density,Total Population,Median Age,% Seniors,% w/ Children,Median Home Value,Per Capita Income,% White,% Black,% Amerindian,% Asian,% Pacific Islander,% Other Race,% 2+ Races,Diversity Index,Total Housing Units,% w/ Disability,% Below Poverty,Median Household Income
3,St. Andrew's Church Cemetery,40.5728612,-74.1470843,,Yes,291,1733,2024,1,1408,426,48.2,26.06,43.33,905063,76063,84.98,0.23,0.23,4.69,0,2.11,7.98,40.4,162,26.53,5.44,144318
7,Port Richmond Reformed Dutch Church Cemetery,40.6396185,-74.1330302,,Yes,334,1690,2024,1,12817.3,3878,32.5,10.29,69.97,439796,23303,13,30.32,5.26,5.18,0,32.98,13.25,87.8,1342,32.01,39.93,40502
8,Lutheran Cemetery,40.7123196,-73.8876334,,Yes,174,1850,2024,1,7644.8,2313,43,19.24,38.79,872799,49967,74.58,0.73,0.35,6.23,0.13,11.11,6.83,61,1064,18.18,7.92,89508
12,Ocean View Cemetery,40.8768646,-73.9031391,,Yes,104,1920,2024,1,71222.5,21549,37.4,13.73,55.96,303623,25965,13.36,18.57,1.69,2.4,0.1,46.83,17.04,81.2,8945,28.26,28.24,49078
18,Mount Loretto Cemetery,40.514232,-74.2181552,,Yes,141,1883,2024,1,337.1,102,42.5,16.67,53.33,979167,61639,86.27,2.94,0,2.94,0,0.98,6.86,38.2,27,6.67,3.33,110038
19,Flushing Cemetery,40.7523009,-73.7990004,,Yes,171,1853,2024,1,11416,3454,44.2,20.53,45.05,896670,42569,31.41,1.82,0.49,46.32,0,11.26,8.69,78,1162,25.18,7.45,108252
20,St. Paul's Churchyard Cobble Hill,40.6875922,-73.9941689,21,Yes,186,1838,2024,1,56071.7,16965,35.8,10.41,46.14,1723192,110949,72.84,3.48,0.31,8.78,0.01,3.25,11.32,55,8749,11.08,8.01,182679
25,Resurrection Cemetery,40.5174072,-74.2143462,,Yes,47,1977,2024,1,3576.2,1082,41.9,16.82,51.46,973837,61510,85.49,2.59,0.09,3.6,0.09,1.29,6.84,38.9,382,9.23,3.24,113164
26,Polish National Catholic Cemetery,40.6241779,-74.1449783,,Yes,127,1897,2024,1,12668.6,3833,39.8,17.3,49.77,696487,42945,47.82,12.78,1.77,13.51,0.05,14.95,9.11,82.6,1358,19.14,7.02,104748
30,John Street Methodist Church Graveyard and Vaults,40.7091174,-74.0081374,,Yes,256,1768,2024,1,103203,31225,31.4,6.64,32.59,1096763,120926,61.22,5.01,0.19,21.21,0.1,3.11,9.17,64.7,19530,6.07,6.35,183383
31,"Methodist Cemetery, Jamaica",40.7010673,-73.7939758,,Yes,174,1850,2024,1,18981.4,5743,37,15.24,56.27,626410,23579,3.6,49.1,0.77,20.36,0.17,16.16,9.82,78.8,2118,32.14,22.08,50419
32,Prison Ship Martyrs Tombs,40.6919247,-73.9757097,,Yes,216,1808,2024,1,57416.9,17372,35.8,12.28,43.96,918702,78410,34.62,31.26,0.5,14.05,0.18,8.57,10.83,82.2,8723,20.27,16.37,111468
33,Stockbridge Indian Burial Ground,40.8994856,-73.8733106,,Yes,246,1778,2024,1,13432.1,4064,37.8,14.59,38.35,722059,55362,70.45,8.49,0.27,1.82,0.2,10.46,8.32,65.4,2010,23.08,10.17,85635
35,St Joseph's Cemetery,40.551281,-74.2156857,,Yes,162,1862,2024,1,10926.8,3306,41.7,18.18,53.52,646895,47272,78.89,1.57,0.67,7.86,0,3.39,7.59,51.5,1214,35.65,8.08,109478
36,Moore Jackson cemetery,40.7560083,-73.9076728,,Yes,291,1733,2024,1,36353.2,10999,40,17.04,45.54,666339,41820,32.03,12.11,1.25,23.08,0.09,19.33,12.11,87.6,4925,19.95,16.16,70624
37,Evergreen Cemetery,40.6870546,-73.8984608,,Yes,175,1849,2024,1,9.9,3,28.8,0,0,0,0,0,0,0,0,0,0,100,44.4,1,0,0,0
41,Our Lady Of Mount Carmel Cemetery,40.7737858,-73.9252112,,Yes,183,1841,2024,1,39529.5,11960,37,14.21,46.66,924395,59896,48.47,4.62,1.15,15.15,0.04,16.51,14.06,82.3,5541,14.37,7.9,103967
42,New Utrecht Cemetery,40.6107804,-74.0060018,,Yes,370,1654,2024,1,46972.7,14212,39.8,17.61,50.9,1077241,37534,32.56,1.28,1.27,50.91,0.01,8.87,5.11,72.1,5191,22.43,10.69,76935
50,Mount St.Mary's Cemetery,40.7405691,-73.8008708,,Yes,162,1862,2024,1,9528.7,2883,40.2,15.75,51.26,996503,37301,14.33,2.6,0.49,60.98,0.03,13.77,7.84,72.2,1083,13.37,8.88,86874
51,Presentation Sisters Cemetery,40.5615203,-74.1852253,,Yes,140,1884,2024,1,11977.8,3624,39.7,12.47,65.03,487845,37656,58.42,3.92,0.3,24.01,0.06,5.3,8,69.7,1208,15.71,11.01,101755
52,Flatlands Reformed Dutch Church Cemetery,40.6238848,-73.9365018,,Yes,176,1848,2024,1,40349.2,12208,39.3,17.06,54.36,727095,34667,17.78,57.8,0.35,9.42,0.03,6.26,8.36,68.6,4309,28.87,10.4,81018
53,Pell Family Burial Ground,40.870588,-73.8047265,,Yes,182,1842,2024,0,0,0,0,0,0,0,0,0,0,0,0,0,0,0,0,0,0,0,0
54,St. Michael's Cemetery,40.7644303,-73.8988815,,Yes,172,1852,2024,1,6157.5,1863,39.1,17.66,43.29,952479,40442,47.88,3.06,0.38,21.63,0.11,14.39,12.61,81.4,722,14.11,9.29,64753
56,"St. Peter's Cemetery, West New Brighton",40.6227171,-74.11352,,Yes,176,1848,2024,1,6517.7,1972,46,25.35,44.07,729035,61869,78.35,1.93,0.25,6.49,0,4.41,8.47,51.9,884,23.71,5.18,119584
57,Rapejle Cemetery,40.7831731,-73.9145271,,Yes,2024,,2024,1,28817.5,8719,39.2,15.33,43.74,990556,40716,57.3,4.16,0.53,13.66,0.07,11.86,12.43,76.2,3822,28.51,13.65,79213
58,Flatbush Reformed Dutch Church Cemetery,40.6499743,-73.9594101,,Yes,270,1754,2024,1,93595,28318,36.5,13.94,54.28,946108,38869,15.72,54.6,1.1,4.14,0.06,13.5,10.88,77.1,11955,16.33,16.09,74174
59,First Presbyterian of Throggs Neck Churchyard,40.8398953,-73.836569,,Yes,169,1855,2024,1,18921.9,5725,39.7,15.09,47.38,665379,38732,35.6,11.83,1.47,8.73,0.16,27.49,14.72,87.7,2375,25.74,15.01,65447
61,Merrell Cemetery,40.610447,-74.1614743,,Yes,240,1784,2024,1,15438.3,4671,40.7,18.86,46.47,675096,42380,54.55,4.97,0.81,22.8,0.11,9.08,7.69,74.8,1685,27.41,5.95,101280
62,St. Monica's Cemetery,40.6999486,-73.7968904,,Yes,186,1838,2024,1,15464.8,4679,35.8,13.72,58.4,620066,25646,3.57,52.94,0.88,18,0.11,15.02,9.49,77.1,1583,31.87,23.92,51858
64,Knollwood Park Cemetery,40.6916915,-73.8983921,,Yes,77,1947,2024,1,9796.4,2964,34,9.72,65.08,1011905,37776,20.24,9.75,1.59,4.22,0.07,44.03,20.14,83.2,1082,20.68,9.42,82881
65,St. Anns Churchyard,40.8082689,-73.9169159,,Yes,183,1841,2024,1,78559.9,23769,33.5,11.54,63.16,791515,15639,9.11,29.02,2.81,0.86,0.09,44.15,13.96,81.3,9104,42.05,43.02,21848
67,United Hebrew Cemetery,40.5672945,-74.1476556,,Yes,116,1908,2024,1,6927.6,2096,43.4,19.8,49.17,681196,57397,82.97,0.91,0.14,4.63,0,3.82,7.54,46.4,863,12.84,7.61,124017
68,Riker Cemetery,40.7734059,-73.8921776,,Yes,282,1742,2024,1,13167.7,3984,41.5,16.94,46.46,832325,46793,69.6,2.41,0.28,6.88,0.08,9.46,11.3,66.3,1709,19.56,7.47,101615
71,"St. Peter's Church Cemetery, Westchester sq.",40.8382267,-73.8439706,,Yes,229,1795,2024,1,26176.7,7920,34.9,12.31,64.02,669922,22847,10.83,11.38,2.02,34.65,0.18,30.27,10.68,87.5,2709,33.19,30.33,46330
72,"Friend Cemetery, Westchester sq.",40.8378156,-73.844564,,Yes,169,1723,1892,1,28447.3,8607,35.3,12.92,63.59,668427,23078,11.15,11.61,2.09,33.98,0.17,30.36,10.62,87.7,2926,32.9,29.63,47483
74,Baron Hirsch Cemetery,40.622115,-74.1552498,,Yes,125,1899,2024,1,15395.3,4658,39.8,17.15,51.66,488262,38692,34.76,17.48,1.05,19.79,0.09,16.12,10.71,87.1,1701,23.74,6.85,96778
76,Mount Olivet Cemetery,40.7203134,-73.8952537,,Yes,173,1851,2024,1,14311.3,4330,43.3,19.49,43.92,839815,50870,67.41,1.62,0.42,8.57,0,12.82,9.15,69.9,1845,18.44,9.25,115244
77,Barkeloo Cemetery,40.6367861,-74.0347311,,Yes,299,1725,2024,1,31022,9386,42,18.53,45.21,1012725,58492,62.5,2.58,0.3,18.84,0.02,6.55,9.22,67.8,4361,25.82,11.35,90993
80,St. Mary's Cemetery,40.5967809,-74.0818244,,Yes,171,1853,2024,1,12433.9,3762,41.6,18.5,45.68,705630,34543,51.73,12.33,0.56,18,0.05,10.05,7.28,77.8,1425,22.12,12.46,65599
81,"Bayside Cemetery, Mokom Sholom cemetery& Acacia Cemetery",40.6777631,-73.8550004,,Yes,163,1861,2024,1,29964.4,9066,36.6,13.1,60.3,733666,34049,12.89,7.39,1.88,43.78,0.02,23.84,10.21,84,2724,25.99,11.48,88060
86,St. Mary of the assumption cemetery,40.6304628,-74.1451084,,Yes,0,,,1,16710.8,5056,37.5,12.6,59.02,701087,33348,24.43,23.69,3.4,10.9,0.16,25.89,11.53,89.4,1734,22.17,14.29,81131
87,"Public Burial Ground, Flushing",40.7546461,-73.8023791,,Yes,0,,,1,22111.4,6690,41.1,17.38,44.29,915676,34580,17.97,1.46,0.43,56.85,0,15.71,7.58,76.1,2359,20.96,11.17,76159
88,"Macedonia A.M.E Cemetery,",40.7618648,-73.8277463,60,Yes,187,1837,2024,1,59370.2,17963,46,22.36,37.56,673169,30004,7.5,4.74,0.44,74.14,0.02,8.03,5.13,57.4,8047,26.33,23.39,42042
89,"Friend's Cemetery, Prospect Park",40.6599757,-73.9726505,,Yes,178,1846,2024,1,6362.4,1925,43.1,15.64,56.76,1908120,96665,78.49,2.03,0.21,6.7,0,3.95,8.62,47.1,932,5.8,1.35,162141
97,Merchant Marine Cemetery,40.5643229,-74.1471812,,Yes,123,1901,2024,1,10665.7,3227,42.7,19.49,50.14,628210,44956,82.71,1.18,0.15,4.68,0,3.9,7.38,46.7,1228,12.96,17.9,112011
99,Canarsie Cemetery,40.6366547,-73.9044092,32,Yes,136,1888,2024,1,39724.5,12019,39.8,16.83,55.45,715527,35288,4.86,80.81,0.1,2.75,0.02,3.68,7.8,41.8,4202,18.59,10.37,84973
102,Fredrick Douglass Memorial Park,40.5637141,-74.134993,,Yes,89,1935,2024,1,8200.1,2481,44.7,22.33,46.69,647451,59974,80.85,0.73,0.12,8.67,0,3.55,6.13,46.7,920,29.08,6.21,127888
103,"Friend's Cemetery, Flushing",40.7628223,-73.8301714,,Yes,348,1676,2024,1,35199.7,10650,45.5,23.41,36.42,689723,29220,7.77,6.58,0.4,72.12,0.03,8.01,5.09,59.4,4931,29,26.07,41791
104,Holy Cross Cemetery,40.6470233,-73.9382502,,Yes,175,1849,2024,1,19622.6,5937,41.6,19.44,44.18,627242,33865,1.89,81.05,0.27,3.71,0.03,3.27,9.79,41.7,2156,15.85,11.33,75031
107,"Quarantine Cemeteries, Silverlake",40.6214394,-74.0953913,72,Yes,132,1892,2024,1,7135.8,2159,41.5,19.87,43.59,541667,48858,49.05,22.33,0.14,6.81,0.05,9.12,12.51,80,1051,30.98,6.46,86798
109,Mount richmond Cemetery,40.5680268,-74.1440413,,Yes,115,1909,2024,1,6600.4,1997,44.1,20.53,49.33,715785,63840,84.13,0.7,0.25,5.11,0,3.61,6.26,43.3,766,10.95,0,128249
111,Machpelah Cemetery,40.6937988,-73.8863912,,Yes,169,1855,2024,1,4795.8,1451,41.6,15.02,48.88,826480,48131,45,2.55,0.9,5.17,0.07,30.05,16.26,83.8,536,15.65,0,105831
112,New Union Field/Beth-El Cemetery,40.6953103,-73.8867826,,Yes,149,1875,2024,1,7003.6,2119,41.4,15.05,48.71,812198,46239,45.54,2.45,0.85,5.14,0.09,29.92,15.95,83.7,785,16.11,1.59,101165
113,Union Field Cemetery,40.6932599,-73.8891824,,Yes,169,1855,2024,1,6583.8,1992,41.3,15.11,50.56,838832,45570,42.22,2.36,1.31,4.82,0.1,32.58,16.62,84,737,16.27,3.13,107225
114,Hungarian Union Field Cemetery,40.6927779,-73.8850344,,Yes,121,1903,2024,1,0,0,0,0,0,0,0,0,0,0,0,0,0,0,0,0,0,0,0
116,Linden Hill Cemetery,40.7113964,-73.9135659,,Yes,149,1875,2024,1,26755.1,8095,36.8,11.71,55.43,946285,37820,40.06,3.31,1.63,9.78,0.06,31.92,13.23,85.5,3305,17.74,15.59,77194
123,Maimonides Cemetery & Mount Hope Cemetery,40.6919916,-73.8707621,,Yes,132,1892,2024,1,22177.5,6710,36.8,12.22,58.78,771396,32410,8.97,10.43,1.64,13.04,0.15,49.75,16.01,82.4,2162,20.91,13.72,85294
125,Montefiore Cemetery,40.6857352,-73.7420406,,Yes,116,1908,2024,1,8044.7,2434,46.8,22.76,46.42,599880,48974,1.48,87.47,0.29,0.74,0.04,3.2,6.78,33.1,832,29.53,4.17,128281
127,Cypress Hill Cemetery,40.6996834,-73.8832982,,Yes,176,1848,2024,1,20650.5,6248,39.5,14.9,49.56,792969,40709,55.33,2.66,1.01,4.11,0.03,24.97,11.89,80.3,2530,19.97,7.9,86342
129,Ferris Family Burial Ground,40.8388529,-73.842227,,Yes,,,1914,1,20237.4,6123,34.8,11.6,64.89,656863,23668,10.94,11.79,2.01,33.89,0.2,30.43,10.73,87.7,2062,34.92,32.31,43739
131,Calvary Cemetery (West),40.7335524,-73.9305068,,Yes,176,1848,2024,1,3784.4,1145,32.5,8.03,57.53,866667,41000,23.32,32.23,2.36,11.79,0.52,19.39,10.31,88.4,201,13.64,10.61,60150
132,Calvary Cemetery (East),40.735158,-73.9136752,,Yes,179,1845,2024,1,5344.4,1617,38.1,11.38,61.18,841837,34628,17.32,1.79,1.73,25.29,0.25,40.63,12.99,85.6,590,11.37,5.05,61250
133,Cypress Hill National Cemetery,40.6870801,-73.8815946,,Yes,162,1862,2024,1,14701.3,4448,37.3,12.16,62.43,729814,32755,9.42,16.48,1.87,3.89,0.16,50.94,17.24,79.9,1503,19.07,11.87,81209
134,Pelham Cemetery,40.8494459,-73.7843497,,Yes,,,2024,1,5724.5,1732,51.7,29.73,38.41,705317,77857,64.55,5.02,0.64,5.83,0.06,11.43,12.47,72.7,909,37.64,6.52,122010
135,Mount Zion Cemetery,40.7306635,-73.9064302,,Yes,,,2024,1,5456.8,1651,42.9,17.44,48.23,848814,50845,61.48,1.45,0.97,13.33,0,13.2,9.57,73.7,685,15.04,4.27,98981
136,Rossville A.M.E Zion Church cemetery,40.5412763,-74.2203926,,Yes,172,1852,2024,1,11958,3618,39.6,14.4,57,666196,50696,80.13,1.93,0.11,7.71,0,2.87,7.24,49.3,1373,32.28,14,101048
137,Sailor's Snug Harbor Cemetery,40.6377002,-74.1004083,,Yes,193,1831,2024,1,6659.9,2015,48.3,26.65,46.01,818056,55111,52.75,13.9,0.69,10.17,0.1,7.25,15.14,78.4,627,19.76,12.45,108416
139,"St Johns Cemetery, Middle Village",40.7156927,-73.8664287,,Yes,145,1879,2024,1,3067.2,928,44.9,21.01,42.11,892308,53877,50.54,1.08,0.22,28.56,0,9.16,10.45,75.4,360,18.36,7.4,100688
140,Remsen Family Cemetery,40.712438,-73.8585137,,Yes,234,1790,2024,1,16499.3,4992,45.4,21.13,44.16,925253,55586,49.3,2,0.34,26.06,0,10.2,12.1,78.2,2101,18.9,7.46,109252
141,Washington Cemetery,40.6200387,-73.9769459,,Yes,174,1850,2024,1,20769.5,6284,26.8,10.36,63.51,1195860,29841,72.74,1.29,0.8,14.39,0.03,6.59,4.15,53.2,1913,22.58,15.63,68946
142,St. Raymond Old Cemetery,40.8337279,-73.8335076,,Yes,149,1875,2024,1,12245.5,3705,39.4,14.71,47.79,686813,42824,30.85,12.58,1.73,5.64,0.24,34.36,14.63,87,1481,34.27,14.05,91957
143,St. Raymond New Cemetery,40.822635,-73.832057,,Yes,73,1951,2024,1,2191.3,663,61,46.61,19.15,441667,7187,18.1,23.83,2.26,0.3,0.3,40.87,14.33,82,302,68.17,67.15,10238
144,"Jesuit Cemetery, Fordham University",40.8634325,-73.8858432,,Yes,177,1847,2024,1,40207,12165,27.2,12.12,58.38,578704,17124,25.11,20.72,1.42,5.01,0.1,33.27,14.36,88,3632,30.12,32.92,38934
145,Mount Judah Cemetery,40.6911332,-73.8925212,,Yes,116,1908,2024,1,4647,1406,37.4,11.52,59.07,920573,47088,29.3,4.62,1.14,3.91,0.07,41.11,19.84,83.3,473,13.38,2.68,113212
148,Sisters of Charity Cemetery,40.9133489,-73.9069927,,Yes,177,1847,2024,1,12523.2,3789,50.9,34.78,41.53,286111,35460,46.32,16.1,0.37,5.52,0.03,19.16,12.54,84,1496,37.8,9.44,70232
150,New York City Marble Cemetery,40.7245868,-73.988935,,Yes,193,1831,2024,1,95462.4,28883,33.4,14,31.49,887246,74808,60.15,5.68,0.53,16.73,0.14,7.24,9.54,70.7,18419,16.09,18.32,78835
151,New York Marble Cemetery,40.7256338,-73.9909627,,Yes,193,1831,2024,1,81640.3,24701,34.4,15.38,30.84,929167,81540,59.7,5.87,0.5,17.26,0.14,7.12,9.42,70.6,15321,18.3,18.82,79954
152,St. raymond Churchyard,40.8421566,-73.8537731,,Yes,182,1842,2024,1,53672.2,16239,39,14.72,49.03,528770,32256,12.89,34.26,1.31,17.11,0.07,22.98,11.37,88.2,6854,24.75,22.94,64599
153,Most Holy Trinity Cemetery,40.6887258,-73.902831,,Yes,173,1851,2024,1,23879.6,7225,33.2,10.16,60.45,1057692,30372,19.67,23.93,1.52,4.17,0.08,35.86,14.77,87.5,2822,26.03,22.35,59651
154,Brinckerhoff Cemetery,40.7320141,-73.7882783,,Yes,294,1730,2024,1,16611.6,5026,41.3,19.82,46.71,955707,44772,34.2,5.77,0.28,45.64,0,6.29,7.82,74,1742,23.7,8.27,106768
155,St. James churchyard,40.6970455,-73.9865002,,Yes,202,1822,2024,1,39612.1,11985,35,14.13,37.58,873434,82767,40.11,18.67,0.38,24.18,0.02,6.45,10.19,80.1,6807,21.75,16.44,117789
157,St. Mark's in the Bowery Churchyard and Cemetery,40.7303059,-73.9868122,88,Yes,225,1799,2024,1,105962.8,32060,29.9,10.24,28.84,980128,86898,65.76,4.36,0.26,16.15,0.08,4.47,8.92,62.7,19033,12.71,16.68,110982
158,Van Cortlandt family Burial Ground,40.8958357,-73.8922366,,Yes,139,1749,1888,1,2687.1,813,36.3,13.78,41.58,350000,53824,38.5,18.33,0.37,6.77,0.25,19.93,15.74,87,437,7.74,4.52,94304
160,Cedar Grove-Mount Hebron Cemetery,40.741263,-73.833796,,Yes,131,1893,2024,1,11326.7,3427,39.9,17.01,46.88,1017588,34335,13.66,1.37,0.58,64.87,0,12.52,6.97,69.1,1112,25.91,8.52,69464
161,Willett Family Burial Ground,40.7427454,-73.8347778,,Yes,302,1722,2024,1,11891.9,3598,40.2,16.26,50.09,1008065,29418,11.4,1.28,0.64,67.43,0,12.9,6.36,67.1,1134,19.46,13.02,60029
163,Mount Carmel Cemetery,40.6984065,-73.8856158,,Yes,108,1916,2024,1,21737.9,6577,39,14.29,50.98,758824,40962,51.53,2.81,0.94,4.26,0.06,27.95,12.47,81.8,2603,19.15,9.01,87205
164,Mount Neboh Cemetery,40.6961152,-73.8831241,,Yes,138,1886,2024,1,1355.1,410,41.7,16.34,45.78,659884,36365,53.66,2.44,0.98,4.39,0,22.44,16.1,81.4,156,17.91,5.97,94277
166,Wyckoff Snediker Cemetery,40.6962626,-73.8489289,,Yes,239,1785,2024,1,37496.8,11345,40.7,16.65,51.42,709400,35786,27.93,5.67,2.27,16,0.06,32.99,15.09,88,4083,20.48,10.34,80441
168,Salem Fields Cemetery,40.6887692,-73.8792047,,Yes,173,1851,2024,1,12235.6,3702,36.4,12.94,61.73,695402,32406,11.1,15.42,1.7,3.81,0.11,51.16,16.72,79.5,1276,27.39,7.13,80104
169,Fourth Shearith Israel Cemetery/ Beth Olem Cemetery,40.6904706,-73.8803471,,Yes,173,1851,2024,1,1619.5,490,37.2,13.06,62.5,663462,35666,13.06,14.49,1.43,3.88,0,46.12,20.61,81.7,154,33.96,3.77,84381
171,St. Paul's Churchyard,40.7115932,-74.0098303,,Yes,258,1766,2024,1,59019.9,17857,31,4.88,47.69,1675532,124321,62.92,5.05,0.22,18.89,0.1,3,9.82,63.7,9283,5.34,3.96,200001
173,Mount Lebanon Cemetery,40.700229,-73.8731223,,Yes,109,1915,2024,1,8243,2494,41,17.12,44.94,820628,44957,64.03,2.61,0.68,4.53,0,17.84,10.3,74.4,1020,22.54,5.82,92817
176,St. Patrick's old cathedral's cemetery,40.7237658,-73.9950931,,Yes,215,1809,2024,1,71020.9,21488,35.8,16.14,38.19,1445289,88987,54.43,5.75,0.24,23.37,0.13,6.79,9.29,72.1,12596,18.44,13.86,109705
177,St. Peter's Catholic Graveyard,40.7124899,-74.0095285,95,Yes,239,1785,2024,1,61092.2,18484,31.5,5.55,50.26,1830106,124640,64.12,4.7,0.21,18.08,0.11,2.81,9.98,62.4,9514,5.96,4.14,200001
178,Third Shearith Israel Cemetery,40.741624,-73.9944312,,Yes,195,1829,2024,1,83130.9,25152,36.5,12.51,36.99,1313107,132963,69.15,4.11,0.22,13.68,0.06,3.54,9.24,58.6,17404,10.9,10.75,174271
179,Second Shearith Israel Cemetery,40.7351482,-73.9978547,,Yes,219,1805,2024,1,93158.7,28186,37.5,19.04,33.02,1466529,133219,75.13,3.51,0.13,9.62,0.09,3.11,8.41,50.9,18859,12.45,6.69,183727
180,First Shearith Israel Cemetery,40.7127562,-73.9983644,,Yes,342,1682,2024,1,78556.6,23768,47.2,27.39,37.85,681034,26832,12.1,8.49,0.23,69.51,0.09,5.34,4.24,60.2,11344,21.34,37.15,31242
181,Passionist Monaestry Cemetery,40.7151042,-73.7843644,,Yes,100,1924,2024,1,32912.6,9958,41.5,19.83,48.13,884167,38227,11.68,21.59,1.27,42.01,0.31,13.83,9.32,81.7,3897,25.68,11.32,77350
187,Leverich Family Burial Ground,40.7500192,-73.8945481,,Yes,244,1780,2024,1,74474.7,22533,41.4,16.23,49.43,751147,38850,17.82,1.61,1.3,49.82,0.04,19.26,10.16,81.4,8874,15.53,11.98,70147
188,The New Burial Place without the gate of the city,40.7084111,-74.011873,,Yes,338,1686,2024,1,99497.9,30104,31.6,4.33,35.85,1360495,131131,61.16,4.41,0.19,21.31,0.07,2.84,10.02,64.6,18979,3.63,3.82,200001
